[
    {
        "name": "AP Food Mart #1",
        "address": "7444 Two Notch",
        "city": "Columbia",
        "phone": "803-391-5695",
        "brand": "SHELL",
        "terminal": "CLT",
        "notes": "",
        "comments": "",
        "latitude": 34.07063,
        "longitude": -80.95074
    },
    {
        "name": "B&H Mini Mart",
        "address": "2457 Sumter Hwy",
        "city": "Bishopville",
        "phone": "803-737-1307",
        "brand": "UNB",
        "terminal": "CLT",
        "notes": "",
        "comments": "",
        "latitude": 34.16302,
        "longitude": -80.29945
    },
    {
        "name": "Balls Food Mart",
        "address": "3264 Augusta Rd",
        "city": "Warrenville",
        "phone": "803-737-1307",
        "brand": "UNB",
        "terminal": "N. AUG",
        "notes": "",
        "comments": "",
        "latitude": 33.50916,
        "longitude": -81.85698
    },
    {
        "name": "Baps Irmo",
        "address": "10401 Broad River Rd",
        "city": "Irmo",
        "phone": "803-737-1307",
        "brand": "SHELL",
        "terminal": "SPARTY",
        "notes": "",
        "comments": "",
        "latitude": 34.0912,
        "longitude": -81.1876
    },
    {
        "name": "Bennettsville Quick Stop",
        "address": "326 Hwy 9",
        "city": "Bennettsville",
        "phone": "803-737-1307",
        "brand": "SHELL",
        "terminal": "CLT",
        "notes": "",
        "comments": "",
        "latitude": 34.6198,
        "longitude": -79.6823
    },
    {
        "name": "Best Stop 2",
        "address": "3937 Leaphart Rd.",
        "city": "W. Columbia",
        "phone": "803-737-1307",
        "brand": "UNB",
        "terminal": "N. AUG",
        "notes": "",
        "comments": "",
        "latitude": 33.9987,
        "longitude": -81.0789
    },
    {
        "name": "Bi-Rite",
        "address": "12890 Main St.",
        "city": "Williston",
        "phone": "803-737-1307",
        "brand": "UNB",
        "terminal": "N. AUG",
        "notes": "",
        "comments": "",
        "latitude": 33.4067,
        "longitude": -81.4278
    },
    {
        "name": "Black Crest Farms",
        "address": "1320 Old Manning Rd",
        "city": "Sumter",
        "phone": "803-737-1307",
        "brand": "UNB",
        "terminal": "N. AUG",
        "notes": "",
        "comments": "",
        "latitude": 33.9187,
        "longitude": -80.3456
    },
    {
        "name": "Black River Electric",
        "address": "1121 N.Pike Rd",
        "city": "W. Sumter",
        "phone": "803-737-1307",
        "brand": "UNB",
        "terminal": "N. AUG",
        "notes": "",
        "comments": "",
        "latitude": 33.9234,
        "longitude": -80.3489
    },
    {
        "name": "Boulineau's",
        "address": "318 Sea Mountain",
        "city": "N. Myrtle Beach",
        "phone": "803-737-1307",
        "brand": "SHELL",
        "terminal": "SPARTY",
        "notes": "",
        "comments": "",
        "latitude": 33.8198,
        "longitude": -78.6845
    },
    {
        "name": "Boulineau's Express",
        "address": "1116 Sea MTN Hwy",
        "city": "N. Myrtle Beach",
        "phone": "803-737-1307",
        "brand": "UNB",
        "terminal": "SPARTY",
        "notes": "",
        "comments": "",
        "latitude": 33.8178,
        "longitude": -78.6823
    },
    {
        "name": "Brookgreen Pantry and Deli",
        "address": "2230 Mechanicsville Rd",
        "city": "Florence",
        "phone": "803-737-1307",
        "brand": "UNB",
        "terminal": "SPARTY",
        "notes": "",
        "comments": "",
        "latitude": 34.1987,
        "longitude": -79.7678
    },
    {
        "name": "Bull Convenient Store CLT",
        "address": "3952 US 76",
        "city": "Florence",
        "phone": "803-737-1307",
        "brand": "EXXON",
        "terminal": "CLT",
        "notes": "",
        "comments": "",
        "latitude": 34.1923,
        "longitude": -79.7589
    },
    {
        "name": "Busy Corner",
        "address": "100 S. Ron McNair Blvd",
        "city": "Lake City",
        "phone": "803-737-1307",
        "brand": "SHELL",
        "terminal": "CLT",
        "notes": "",
        "comments": "",
        "latitude": 33.8756,
        "longitude": -79.7567
    },
    {
        "name": "Busy Corner #4",
        "address": "346 Belle Hwy.",
        "city": "Walterboro",
        "phone": "803-737-1307",
        "brand": "UNB",
        "terminal": "N. AUG",
        "notes": "",
        "comments": "",
        "latitude": 32.9087,
        "longitude": -80.6698
    },
    {
        "name": "Busy Corner #5",
        "address": "401 S. Jeffries Blvd",
        "city": "Walterboro",
        "phone": "803-737-1307",
        "brand": "UNB",
        "terminal": "N. AUG",
        "notes": "",
        "comments": "",
        "latitude": 32.9023,
        "longitude": -80.6634
    },
    {
        "name": "Caper House 1",
        "address": "401 N Main St",
        "city": "Saluda",
        "phone": "803-737-1307",
        "brand": "UNB",
        "terminal": "N. AUG",
        "notes": "",
        "comments": "",
        "latitude": 34.0056,
        "longitude": -81.7767
    },
    {
        "name": "Caper House 2",
        "address": "479 Lee Street",
        "city": "Johnston",
        "phone": "803-737-1307",
        "brand": "UNB",
        "terminal": "N. AUG",
        "notes": "",
        "comments": "",
        "latitude": 33.8345,
        "longitude": -81.8045
    },
    {
        "name": "Caper House 6",
        "address": "1915 Jefferson Davis",
        "city": "Camden",
        "phone": "803-737-1307",
        "brand": "CITGO",
        "terminal": "CLT",
        "notes": "",
        "comments": "",
        "latitude": 34.2498,
        "longitude": -80.6123
    },
    {
        "name": "Carolina Pantry 2",
        "address": "7850 Garners Ferry Road",
        "city": "Columbia",
        "phone": "803-737-1307",
        "brand": "EXXON",
        "terminal": "CLT",
        "notes": "",
        "comments": "",
        "latitude": 34.0045,
        "longitude": -81.0387
    },
    {
        "name": "Cassatt Country Store",
        "address": "2590 US HWY 1",
        "city": "Cassett",
        "phone": "803-737-1307",
        "brand": "UNB",
        "terminal": "CLT",
        "notes": "",
        "comments": "",
        "latitude": 34.1167,
        "longitude": -80.6956
    },
    {
        "name": "Caughman (RWC) Farm",
        "address": "794 Tiger Lilly Rd.",
        "city": "Sumter",
        "phone": "803-737-1307",
        "brand": "UNB",
        "terminal": "N. AUG",
        "notes": "",
        "comments": "",
        "latitude": 33.9167,
        "longitude": -80.3445
    },
    {
        "name": "Chapman Farm",
        "address": "2073 Bethlehem Rd.",
        "city": "Hartsville",
        "phone": "803-737-1307",
        "brand": "UNB",
        "terminal": "CLT",
        "notes": "",
        "comments": "",
        "latitude": 34.3767,
        "longitude": -80.0778
    },
    {
        "name": "Chester Express",
        "address": "203 Pinckney St.",
        "city": "Chester",
        "phone": "803-737-1307",
        "brand": "UNB",
        "terminal": "CLT",
        "notes": "",
        "comments": "",
        "latitude": 34.7089,
        "longitude": -81.2178
    },
    {
        "name": "City of Cayce",
        "address": "1800 12th St.",
        "city": "Cayce",
        "phone": "803-737-1307",
        "brand": "UNB",
        "terminal": "N. AUG",
        "notes": "",
        "comments": "",
        "latitude": 33.9678,
        "longitude": -81.0767
    },
    {
        "name": "City Gas",
        "address": "4808 Fish Hatchery Rd",
        "city": "Gaston",
        "phone": "803-737-1307",
        "brand": "UNB",
        "terminal": "N. AUG",
        "notes": "",
        "comments": "",
        "latitude": 33.8198,
        "longitude": -81.1045
    },
    {
        "name": "City Gas TN",
        "address": "2100 Two Notch Rd.",
        "city": "Columbia",
        "phone": "803-737-1307",
        "brand": "UNB",
        "terminal": "N. AUG",
        "notes": "",
        "comments": "",
        "latitude": 34.0034,
        "longitude": -81.0312
    },
    {
        "name": "CM Dukes Oil",
        "address": "1547 Charleston Hwy",
        "city": "Orangeburg",
        "phone": "803-737-1307",
        "brand": "UNB",
        "terminal": "N. AUG",
        "notes": "",
        "comments": "",
        "latitude": 33.4945,
        "longitude": -80.8587
    },
    {
        "name": "C Mart Travel Center",
        "address": "3403 Mike Padgett Hwy",
        "city": "Augusta",
        "phone": "803-737-1307",
        "brand": "BP",
        "terminal": "N. AUG",
        "notes": "",
        "comments": "",
        "latitude": 33.4789,
        "longitude": -82.0145
    },
    {
        "name": "Coopers Country Store",
        "address": "6945 US Hwy 521",
        "city": "Salters",
        "phone": "803-737-1307",
        "brand": "EXXON",
        "terminal": "CLT",
        "notes": "",
        "comments": "",
        "latitude": 33.6056,
        "longitude": -79.8512
    },
    {
        "name": "Cokesbury",
        "address": "4202 Cokesbury Rd.",
        "city": "Hodges",
        "phone": "803-737-1307",
        "brand": "UNB",
        "terminal": "N. AUG",
        "notes": "",
        "comments": "",
        "latitude": 34.2876,
        "longitude": -82.2445
    },
    {
        "name": "Corner Stop 122",
        "address": "3508 Union Hwy",
        "city": "Gaffney",
        "phone": "803-737-1307",
        "brand": "UNB",
        "terminal": "SPARTY",
        "notes": "",
        "comments": "",
        "latitude": 35.0756,
        "longitude": -81.6534
    },
    {
        "name": "Corner Stop 123",
        "address": "3053 Whitehorse Rd",
        "city": "Greenville",
        "phone": "803-737-1307",
        "brand": "UNB",
        "terminal": "SPARTY",
        "notes": "",
        "comments": "",
        "latitude": 34.8567,
        "longitude": -82.3987
    },
    {
        "name": "Corner Stop 125",
        "address": "201 E. Main Street",
        "city": "Andrews",
        "phone": "803-737-1307",
        "brand": "UNB",
        "terminal": "SPARTY",
        "notes": "",
        "comments": "",
        "latitude": 33.4545,
        "longitude": -79.5678
    },
    {
        "name": "Corner Stop 53",
        "address": "700 Flemming St",
        "city": "Laurens",
        "phone": "803-737-1307",
        "brand": "CITGO",
        "terminal": "SPARTY",
        "notes": "",
        "comments": "",
        "latitude": 34.5023,
        "longitude": -82.0178
    },
    {
        "name": "Corner Stop 54",
        "address": "8214 Hwy 14",
        "city": "Gray Court",
        "phone": "803-737-1307",
        "brand": "CITGO",
        "terminal": "SPARTY",
        "notes": "",
        "comments": "",
        "latitude": 34.6112,
        "longitude": -82.1178
    }
]
